[{"id":"71A1102A-7549-450F-BE3A-972F2FAC27E7","latitude":56.178104000000005,"name":"Aarhus","longitude":10.181798499999999},{"id":"34212C89-58E7-413D-9041-98EBF9EF0792","latitude":-34.9572,"name":"Adelaide","longitude":138.61994999999999},{"id":"6DF9AC90-6153-4DEE-BEA7-A3C8B5647C66","latitude":35.082409999999996,"name":"Albuquerque","longitude":-106.6764795},{"id":"71161276-7705-450D-95BF-CC030B373336","latitude":43.270133000000001,"name":"Almaty","longitude":76.944165499999997},{"id":"6864D72E-8569-4DEF-B553-B59D84C9C9ED","latitude":52.396000000000001,"name":"Amsterdam","longitude":4.9060000000000006},{"id":"A7330105-EEBD-40A7-ABD5-9BDF2EB08749","latitude":61.163499999999999,"name":"Anchorage","longitude":-149.87690000000001},{"id":"58B1CAD1-9287-4A52-9E08-4582BF6D9A2A","latitude":42.542270000000002,"name":"Andorra","longitude":1.5976720000000002},{"id":"9B26E9EF-6C59-4C0D-8DD1-DEDA3EA37398","latitude":39.905500000000004,"name":"Ankara","longitude":32.807000000000002},{"id":"D5EAEDFF-5E4D-4BA6-B1E7-44C72D415A07","latitude":35.538932000000003,"name":"Asheville","longitude":-82.565405499999997},{"id":"7A4B9A66-17BC-406E-AF9D-DC762B9A9D80","latitude":-25.291530999999999,"name":"Asuncion","longitude":-57.541312500000004},{"id":"93B4144D-EE5F-439A-AE72-A72A29274E9B","latitude":37.939500000000002,"name":"Athens","longitude":23.685000000000002},{"id":"24D968C8-130C-4E65-959A-1C24FD1DEA19","latitude":33.731000000000002,"name":"Atlanta","longitude":-84.327500000000001},{"id":"37DBF914-EBC5-47B4-A409-9B2EC649B7A0","latitude":-36.878999999999998,"name":"Auckland","longitude":174.76850000000002},{"id":"93F54130-28AE-43B8-A9D4-046B027A65F7","latitude":30.3005,"name":"Austin","longitude":-97.722999999999999},{"id":"B0FD1E2B-FA73-40E7-9769-8E0F6036D609","latitude":40.395499999999998,"name":"Baku","longitude":49.855000000000004},{"id":"9CE1F5A9-FF3D-4421-9AFE-B94DB899599F","latitude":-8.32925,"name":"Bali","longitude":115.08175},{"id":"38C19DEA-835D-4788-AD07-4757D57B0781","latitude":39.31998530165,"name":"Baltimore","longitude":-76.651566271299998},{"id":"9FBCB7D4-92EF-4502-8750-B416DDFF7328","latitude":13.84,"name":"Bangkok","longitude":100.453},{"id":"F15BF073-CF9F-45A4-B007-0412EB8A968E","latitude":41.389499999999998,"name":"Barcelona","longitude":2.105},{"id":"3D07292A-612C-423F-8BC7-BE6FABDF6A63","latitude":39.9315,"name":"Beijing","longitude":116.38800000000001},{"id":"819A21F0-1EF7-453B-87DC-64CFB3B019BF","latitude":33.869303500000001,"name":"Beirut","longitude":35.526008500000003},{"id":"619E2E66-D126-4545-BD55-E0EA5E2BE2FF","latitude":54.594940000000001,"name":"Belfast","longitude":-5.9266325000000002},{"id":"DF2CC5B0-8165-46E4-9F9F-C5E7DF85263F","latitude":44.802399999999999,"name":"Belgrade","longitude":20.549250000000001},{"id":"F6FADC13-946E-4764-BD39-71BA212180A2","latitude":17.504258,"name":"Belize City","longitude":-88.2411575},{"id":"A5B3B23D-4EB4-4A3A-A3B3-0A48311F9C9D","latitude":12.939399999999999,"name":"Bengaluru","longitude":77.64725},{"id":"D81B0715-EE82-477F-8AD4-77B4BC343EBE","latitude":60.365189999999998,"name":"Bergen","longitude":5.4291769999999993},{"id":"6AC477C8-0DDD-4300-A649-D75A0213CAF3","latitude":52.421499999999995,"name":"Berlin","longitude":13.4795},{"id":"527A03BF-9D03-495A-B74A-873E4E225448","latitude":46.954000000000001,"name":"Bern","longitude":7.4455},{"id":"E5B7E804-5DBA-4923-853E-83ECEEB30775","latitude":43.263323499999998,"name":"Bilbao","longitude":-2.9335645000000001},{"id":"11A1018F-6FEB-4E92-8A18-EA3332FAC14E","latitude":52.506550000000004,"name":"Birmingham","longitude":-1.9171},{"id":"50DCCF6F-07E3-4315-8C74-3E0D1DD48923","latitude":33.5197705,"name":"Birmingham, AL","longitude":-86.806607499999998},{"id":"14DDDF18-784D-417C-958B-2459659D2763","latitude":4.6565000000000003,"name":"Bogota","longitude":-74.093999999999994},{"id":"899D455D-0AE4-4228-8B7A-5C48C9BEE67F","latitude":43.606136500000005,"name":"Boise","longitude":-116.37050400000001},{"id":"452AD38E-BF59-4B9F-9018-27F539EC66E0","latitude":44.518697500000002,"name":"Bologna","longitude":11.323471},{"id":"2113579D-3117-42EF-AE74-D10366BF4675","latitude":44.857837500000002,"name":"Bordeaux","longitude":-0.57489400000000002},{"id":"801F1895-205C-43C5-8DE8-A194E1940DE3","latitude":42.326499999999996,"name":"Boston","longitude":-71.073000000000008},{"id":"07A80604-F69D-4897-90D7-6D921AB56CFF","latitude":40.017049999999998,"name":"Boulder","longitude":-105.2504},{"id":"0E8C4A13-BE5F-4863-A4D8-0D5C1275D020","latitude":45.700228500000001,"name":"Bozeman","longitude":-111.064911},{"id":"4FF43017-EF34-4AA1-BF63-7292E33EC502","latitude":48.146699999999996,"name":"Bratislava","longitude":17.105400000000003},{"id":"7038BEFF-045D-4333-A83C-002969E752B2","latitude":50.837450000000004,"name":"Brighton","longitude":-0.1062},{"id":"AF0BEE40-28FD-495C-8A49-D14ED7839E17","latitude":-27.587249999999997,"name":"Brisbane","longitude":153.12604999999999},{"id":"1250F2C0-891F-4EC0-9C83-22B0D8EE0D4D","latitude":51.470489000000001,"name":"Bristol","longitude":-2.5891685},{"id":"E3D2A0A2-455F-4E0F-BCF5-B58E4D7CE6AD","latitude":49.202069999999999,"name":"Brno","longitude":16.5779605},{"id":"7B0D1454-2EFF-4D52-91F9-A6BB273A418C","latitude":50.849000000000004,"name":"Brussels","longitude":4.3710000000000004},{"id":"9BF829B7-F80B-4A24-8ABF-266E866D2D5E","latitude":44.435000000000002,"name":"Bucharest","longitude":26.149000000000001},{"id":"1DDD0CAC-7B7B-48E5-980C-0C786078F416","latitude":47.442999999999998,"name":"Budapest","longitude":19.063500000000001},{"id":"C1B5A7DF-3EAF-4877-922C-7CBAD854FC93","latitude":-34.679000000000002,"name":"Buenos Aires","longitude":-58.545500000000004},{"id":"7E73D724-FD95-455A-9460-5FACA23AC987","latitude":42.8879345,"name":"Buffalo","longitude":-78.819076999999993},{"id":"B657B68E-72DA-4F69-967D-99AC8CCBADFF","latitude":30.067182000000003,"name":"Cairo","longitude":31.199112},{"id":"DA3D2604-2994-490B-9D9E-A009EF1B73ED","latitude":50.991500000000002,"name":"Calgary","longitude":-114.02895000000001},{"id":"2B663DD7-1809-46B4-B873-7876A65D6614","latitude":52.198841999999999,"name":"Cambridge","longitude":0.11998699999999998},{"id":"6B304F05-BE43-450E-88C0-12845188FEB8","latitude":-33.917099999999998,"name":"Cape Town","longitude":18.652999999999999},{"id":"AD40ECD8-100A-40D2-844C-1B2F730477BA","latitude":10.468391499999999,"name":"Caracas","longitude":-66.890365500000001},{"id":"C4D38545-11A6-4BFE-BFC5-690891C4E0E6","latitude":51.497185000000002,"name":"Cardiff","longitude":-3.1837400000000002},{"id":"6DF6D521-398E-4112-A448-FE673DCCBDD3","latitude":33.566945500000003,"name":"Casablanca","longitude":-7.5994154999999992},{"id":"9905BB99-39F0-4636-BA53-7A650B6561D7","latitude":32.817993000000001,"name":"Charleston","longitude":-79.956436499999995},{"id":"E2783EFB-FF3A-44DF-8F27-48C74AD4F7BE","latitude":35.216499999999996,"name":"Charlotte","longitude":-80.802999999999997},{"id":"AEC41E9D-A5DC-4FD7-8DB8-137201C7DC04","latitude":35.098295499999999,"name":"Chattanooga","longitude":-85.238691000000003},{"id":"9A230500-9250-4040-B847-9F2EE2AD919A","latitude":13.047560499999999,"name":"Chennai","longitude":80.209012000000001},{"id":"94A20FFF-5FA1-4461-B04A-FB433903626F","latitude":18.787274499999999,"name":"Chiang Mai","longitude":98.983326000000005},{"id":"0B1396BB-3673-4C84-8581-D7C6DA202677","latitude":41.817999999999998,"name":"Chicago","longitude":-87.785499999999999},{"id":"10CA51A6-0380-48A7-9678-D22E12D5BCAF","latitude":46.999499999999998,"name":"Chisinau","longitude":28.858499999999999},{"id":"94DFDADF-B48A-46E0-A819-0738A82406D0","latitude":-43.500500000000002,"name":"Christchurch","longitude":172.5856},{"id":"B4A00AA1-0895-4F5A-8B80-A7635F575C8D","latitude":39.173247000000003,"name":"Cincinnati","longitude":-84.547259999999994},{"id":"505E0F5C-2570-4ACE-9926-B4616364DBC9","latitude":41.509277499999996,"name":"Cleveland","longitude":-81.739311000000001},{"id":"C370B339-0DD0-496F-B330-5322C83EEDE7","latitude":46.775675,"name":"Cluj-Napoca","longitude":23.608589500000001},{"id":"8482A54C-3284-4F88-BC82-3082390BCE33","latitude":50.957245,"name":"Cologne","longitude":6.9673224999999999},{"id":"9BFE1E80-07EA-4BB0-9A5D-987E4E3305FA","latitude":38.875684500000006,"name":"Colorado Springs","longitude":-104.7583595},{"id":"1FB8AEF6-11FA-487D-A0CF-877158DC3E29","latitude":40.000500000000002,"name":"Columbus","longitude":-82.980500000000006},{"id":"7877AECC-326C-4329-B2E4-7599E9C2BCC8","latitude":55.667923500000001,"name":"Copenhagen","longitude":12.575780999999999},{"id":"2C2F0CF3-9B08-489D-AE3C-CD6FE4A7275E","latitude":51.896005000000002,"name":"Cork","longitude":-8.4630499999999991},{"id":"0BDFEA87-2884-4E11-B860-0C89C6B94952","latitude":-25.483081500000001,"name":"Curitiba","longitude":-49.266182499999999},{"id":"D8A32E72-D0F0-4152-A397-2C3F0A42D4E2","latitude":32.798499999999997,"name":"Dallas","longitude":-96.950999999999993},{"id":"9B4E8730-03A4-4998-B5D8-30204164B70E","latitude":-6.7697184999999998,"name":"Dar es Salaam","longitude":39.254290999999995},{"id":"5C6C6941-E2A0-4615-B46B-30B23E1F53BB","latitude":28.551749999999998,"name":"Delhi","longitude":77.24485},{"id":"F9734019-2E9F-4505-969B-6279F5D5A134","latitude":39.737850000000002,"name":"Denver","longitude":-104.9153},{"id":"C8BA568B-6E0F-4AF8-9110-EA8E2DD3164F","latitude":41.593521500000001,"name":"Des Moines","longitude":-93.653640499999995},{"id":"080C3930-3B69-4B18-B82A-A042E467389D","latitude":42.445499999999996,"name":"Detroit","longitude":-83.266500000000008},{"id":"A4F610B2-B22A-4213-9112-7A174D6C4883","latitude":25.290551999999998,"name":"Doha","longitude":51.471599999999995},{"id":"59E42583-0946-407B-85C1-BA8186E4F143","latitude":51.076834000000005,"name":"Dresden","longitude":13.7725855},{"id":"B181A9CA-4326-439B-81A0-4614E1E338D0","latitude":25.144600000000001,"name":"Dubai","longitude":55.294249999999998},{"id":"154CD02A-CD19-405C-BB6B-9A956DD0070E","latitude":53.344999999999999,"name":"Dublin","longitude":-6.2959999999999994},{"id":"B7082E4B-B992-4C48-B852-7A512CD60507","latitude":51.238454500000003,"name":"Dusseldorf","longitude":6.7672410000000003},{"id":"4FD1C62C-EA05-4EED-B90D-F4B6DC439D77","latitude":55.937072000000001,"name":"Edinburgh","longitude":-3.1898325000000001},{"id":"142E64DC-E364-4092-B4A2-43D93B7E609B","latitude":53.555877499999994,"name":"Edmonton","longitude":-113.4939485},{"id":"24F42094-29D1-415C-92E9-04F469740580","latitude":51.441484000000003,"name":"Eindhoven","longitude":5.4967690000000005},{"id":"4B866123-8592-48C6-A559-EF9402A9C118","latitude":44.060665499999999,"name":"Eugene","longitude":-123.08300650000001},{"id":"A701F850-421F-4A09-B816-1CCAB6660088","latitude":43.789023999999998,"name":"Florence","longitude":11.2429615},{"id":"4AC12DDB-690E-44B9-B9D1-70F8730245A1","latitude":-27.610888500000001,"name":"Florianopolis","longitude":-48.507385499999998},{"id":"5D1AB149-3A4F-45D6-84CF-D53FF4669D62","latitude":40.556658499999998,"name":"Fort Collins","longitude":-105.067652},{"id":"25986232-1DCA-4649-8B38-15F2B5084253","latitude":50.039500000000004,"name":"Frankfurt","longitude":8.6265000000000001},{"id":"BDA26D9A-31A1-440D-B660-BC69B8DEFA7D","latitude":33.546099999999996,"name":"Fukuoka","longitude":130.43110000000001},{"id":"25D33188-20C4-4C3C-AF5A-7FCA3E68FC1E","latitude":53.282542499999998,"name":"Galway","longitude":-9.0369425000000003},{"id":"A09FFE92-F900-4D1A-9EE8-1239F33CB12D","latitude":54.346600000000002,"name":"Gdansk","longitude":18.688549999999999},{"id":"764F9097-08FD-4254-80BE-9DF5942E01D5","latitude":46.265999999999998,"name":"Geneva","longitude":6.1204999999999998},{"id":"8360204C-8DBD-4F75-8B2A-D53EA9F972B2","latitude":36.131976999999999,"name":"Gibraltar","longitude":-5.3529169999999997},{"id":"82591A78-CF43-4936-B0CE-A5FCC0595A57","latitude":55.8554575,"name":"Glasgow","longitude":-4.2324590000000004},{"id":"168F4D2F-C4D5-4AD6-B201-D4DD1F6A60DB","latitude":57.701954999999998,"name":"Gothenburg","longitude":11.893682500000001},{"id":"3A1F7856-FA31-4896-A651-8F94BF59BC0C","latitude":45.179721999999998,"name":"Grenoble","longitude":5.7283399999999993},{"id":"E88BEE9D-E543-457C-B42F-20CBF0363E8F","latitude":20.661824500000002,"name":"Guadalajara","longitude":-103.341007},{"id":"97ADAD02-990F-45A8-9FE4-B1C748D3BB1A","latitude":14.595849999999999,"name":"Guatemala City","longitude":-90.573350000000005},{"id":"7B05524D-0506-4C6D-92CB-09A4994EBF3A","latitude":44.701744500000004,"name":"Halifax","longitude":-63.587837},{"id":"0302DD12-004A-4F68-9B37-093D17C81064","latitude":53.567250000000001,"name":"Hamburg","longitude":10.10055},{"id":"AAFAA3B6-2A41-450D-BA67-C2A48DD5C92C","latitude":52.379666499999999,"name":"Hannover","longitude":9.761471499999999},{"id":"D58F81E3-ED8D-44C5-B79E-4B3C36E8ABE1","latitude":23.050665000000002,"name":"Havana","longitude":-82.332709499999993},{"id":"56DA0C91-9B33-43CB-89C0-AF527C6D21A5","latitude":60.204499999999996,"name":"Helsinki","longitude":24.904499999999999},{"id":"1E62C5C7-4E61-49D6-911B-DCE2EABCC873","latitude":10.768451500000001,"name":"Ho Chi Minh City","longitude":106.6943625},{"id":"15DAFF20-26DF-471F-8902-F50D4FE1EEE3","latitude":22.5395,"name":"Hong Kong","longitude":113.9525},{"id":"BA62121C-2437-4875-B118-B221424CB16F","latitude":21.486499999999999,"name":"Honolulu","longitude":-157.971},{"id":"D4BF3750-DCC9-4304-88D1-67FF271BFE3F","latitude":29.558500000000002,"name":"Houston","longitude":-95.221000000000004},{"id":"5ADFED41-0E56-4551-ACD9-9B3392FA9942","latitude":17.412348999999999,"name":"Hyderabad","longitude":78.4080455},{"id":"B0648F2B-EFB3-437E-B11F-7A8F2D093E14","latitude":39.862238500000004,"name":"Indianapolis","longitude":-86.053161500000002},{"id":"300AF19A-1827-42BF-A2AC-2AFB587FC538","latitude":47.279720499999996,"name":"Innsbruck","longitude":11.3955685},{"id":"C1518679-93FF-43A2-BC64-4A11A85302A7","latitude":41.079499999999996,"name":"Istanbul","longitude":28.9955},{"id":"772BB904-C2AE-46B8-92FF-5919E45A967D","latitude":30.344972500000001,"name":"Jacksonville","longitude":-81.683109000000002},{"id":"29552A53-D562-4B4E-A225-258E3E864789","latitude":-6.3800500000000007,"name":"Jakarta","longitude":106.82325},{"id":"742EE3B8-EA6D-4907-BA37-1F7AD8053626","latitude":-26.159886999999998,"name":"Johannesburg","longitude":28.121738499999999},{"id":"7BA6A3CB-CA3D-4051-9A5F-948F2B052C35","latitude":39.1282,"name":"Kansas City","longitude":-94.565550000000002},{"id":"137110E7-FFBD-40A1-8091-96438C91AADE","latitude":49.015849000000003,"name":"Karlsruhe","longitude":8.4095340000000007},{"id":"D5DF3B09-9BD2-4FDE-BBBD-B547300907CF","latitude":27.7089605,"name":"Kathmandu","longitude":85.326132999999999},{"id":"F00D3FE4-3583-498E-A0EB-8D7EC18A4F3C","latitude":50.399900000000002,"name":"Kiev","longitude":30.530999999999999},{"id":"43329CAA-8D17-4602-ACE9-DDEC3F49E99E","latitude":18.001732000000001,"name":"Kingston","longitude":-76.804046499999998},{"id":"9B744639-358C-4A65-AD1E-56D11F8E93AB","latitude":35.958449999999999,"name":"Knoxville","longitude":-83.925049999999999},{"id":"9E08BE13-6E71-48E9-A8D9-929919BAB9FB","latitude":50.046765499999999,"name":"Krakow","longitude":20.004873500000002},{"id":"42BA8031-B69D-4A59-8774-83B3286448F0","latitude":3.0217999999999998,"name":"Kuala Lumpur","longitude":101.6414},{"id":"3DDC41F9-1D45-41F9-8B0F-34FF8AA0CF2A","latitude":35.098026000000004,"name":"Kyoto","longitude":135.71888150000001},{"id":"BF198A33-F902-4D02-8F41-8FDADBD984E0","latitude":6.5438524999999998,"name":"Lagos","longitude":3.3975004999999996},{"id":"C668111B-AB1D-49BF-B6B1-84954BB92564","latitude":-16.520712500000002,"name":"La Paz","longitude":-68.130898500000001},{"id":"8AA782D0-6896-4A97-AB40-3C63200FD137","latitude":28.119594499999998,"name":"Las Palmas de Gran Canaria","longitude":-15.4430865},{"id":"48A2C1AF-7ED8-4CC5-A18D-71623125E060","latitude":36.125394,"name":"Las Vegas","longitude":-115.116806},{"id":"F16D6DA3-3362-437E-9799-C234DEEF076D","latitude":46.552692,"name":"Lausanne","longitude":6.6456985},{"id":"7006A6B4-4D47-438F-8062-4E23CB6160EF","latitude":53.806002500000005,"name":"Leeds","longitude":-1.5357324999999999},{"id":"7989AB9A-3312-4185-86C5-0E410855886C","latitude":51.341782500000001,"name":"Leipzig","longitude":12.393635},{"id":"0F16D12D-5656-4346-8D2C-83E2D5204BD8","latitude":50.633548500000003,"name":"Lille","longitude":3.0598345},{"id":"2C45C391-4CDC-4323-9C86-8B8E297769C6","latitude":-12.033177999999999,"name":"Lima","longitude":-77.023086500000005},{"id":"5FF2569B-135A-41D1-89D3-A6D0F0DCB04E","latitude":38.753999999999998,"name":"Lisbon","longitude":-9.0459999999999994},{"id":"806A78DD-CFBF-4959-850E-D030782F709C","latitude":53.412058500000001,"name":"Liverpool","longitude":-2.975454},{"id":"E6EF1FFC-37D2-4E13-9631-6EF7A3D16A8F","latitude":46.060000000000002,"name":"Ljubljana","longitude":14.58},{"id":"549102C5-63F8-46D2-90B5-A64A2A021B33","latitude":51.4863,"name":"London","longitude":-0.17989999999999995},{"id":"FB8026CA-88BA-449C-B658-D10B0E418C92","latitude":33.9405,"name":"Los Angeles","longitude":-118.0805},{"id":"7EFE8994-8994-4C70-827E-1014529CC9DC","latitude":38.193622500000004,"name":"Louisville","longitude":-85.67001350000001},{"id":"54220596-F04B-4617-9C83-56B6D5A3939D","latitude":49.62735,"name":"Luxembourg","longitude":6.1369000000000007},{"id":"25BDB21F-3686-4A9E-A555-66BEF2746896","latitude":49.833371499999998,"name":"Lviv","longitude":24.023166500000002},{"id":"F03DA3E0-040D-498D-A7AB-3095FA71798A","latitude":45.7654785,"name":"Lyon","longitude":4.8671139999999999},{"id":"4F9F572B-F0F4-43F7-8C19-E1B9956C7943","latitude":43.120367999999999,"name":"Madison","longitude":-89.367599500000011},{"id":"66ADA86C-9078-45AD-8601-C6B1390E222D","latitude":40.414999999999999,"name":"Madrid","longitude":-3.6749999999999998},{"id":"FEA80569-005A-49E0-891C-045204D27D2C","latitude":36.7096205,"name":"Malaga","longitude":-4.4571019999999999},{"id":"35A0BB19-EE15-47E2-A8D7-A79D997224E8","latitude":55.576516999999996,"name":"Malmo","longitude":13.023261999999999},{"id":"1CCB4071-F10E-4608-AA76-003D3DEE6CB2","latitude":12.105781499999999,"name":"Managua","longitude":-86.258460500000012},{"id":"C42FD0DF-6393-422D-9C71-B0EF8DEE3606","latitude":53.5053275,"name":"Manchester","longitude":-2.2806930000000003},{"id":"69AE8AD0-9406-4EC7-913E-F3C9B55D06CD","latitude":14.605308000000001,"name":"Manila","longitude":121.0307605},{"id":"663106AA-BCEA-4A00-A91E-21676E494740","latitude":43.373513500000001,"name":"Marseille","longitude":5.4087065000000001},{"id":"C059451A-8450-4C85-B140-38CF4198D249","latitude":6.2534999999999998,"name":"Medellin","longitude":-75.581999999999994},{"id":"BA01B44C-6B67-4158-842B-EC7ACFF60CAA","latitude":-37.958500000000001,"name":"Melbourne","longitude":145.03800000000001},{"id":"6BC15F7F-5D53-4E57-92C0-06853BCC567E","latitude":35.129868000000002,"name":"Memphis","longitude":-89.960672499999987},{"id":"8CDCEA89-4E48-4E28-A766-BB6693F34EE6","latitude":19.456499999999998,"name":"Mexico City","longitude":-99.101499999999987},{"id":"E9C9B45D-C563-47FE-B2DC-663D1DAC8888","latitude":26.101500000000001,"name":"Miami","longitude":-80.228499999999997},{"id":"A5BAD083-8AC6-43E6-8383-B8EDED86939A","latitude":45.469999999999999,"name":"Milan","longitude":9.1649999999999991},{"id":"72B0E771-0F98-4871-AECC-C2F7C3446F1A","latitude":43.045479499999999,"name":"Milwaukee","longitude":-88.154297},{"id":"F110A289-E06E-41AC-853C-7BACCF55F1BC","latitude":44.958100000000002,"name":"Minneapolis-Saint Paul","longitude":-93.249200000000002},{"id":"279F9CEB-6391-4062-9CFD-67BE213359AA","latitude":53.908299999999997,"name":"Minsk","longitude":27.723999999999997},{"id":"F502F331-C6D7-464F-9F39-010CA7DF3611","latitude":-34.813420999999998,"name":"Montevideo","longitude":-56.223221000000002},{"id":"13B1F3CD-EB86-4021-AD1B-34E395E1BEA1","latitude":45.512500000000003,"name":"Montreal","longitude":-73.728499999999997},{"id":"70E09552-EC76-4035-A000-EEB3C72A61FC","latitude":55.661500000000004,"name":"Moscow","longitude":37.614999999999995},{"id":"D7AE526B-ED62-41D1-A770-739103D2F5D1","latitude":19.103178999999997,"name":"Mumbai","longitude":72.994399999999999},{"id":"85253887-ADEC-4CB8-827E-8EBB7D1D5272","latitude":48.120000000000005,"name":"Munich","longitude":11.4885},{"id":"F1277AD8-A36F-43E6-A0E1-125E508A2D2D","latitude":-1.3048035,"name":"Nairobi","longitude":36.847397000000001},{"id":"317D88F7-B51B-4197-AC97-4BABA6D6CFB0","latitude":47.228355499999999,"name":"Nantes","longitude":-1.559715},{"id":"5371AA50-4BBB-4D42-A91F-D3007AE5811F","latitude":40.862859,"name":"Naples","longitude":14.244975999999999},{"id":"586B208C-B1E2-44D7-A6EB-515C22A3FCFE","latitude":36.173499999999997,"name":"Nashville","longitude":-86.769000000000005},{"id":"7BE80A45-98E5-476C-BC0B-E8DBEA685543","latitude":30.032995999999997,"name":"New Orleans","longitude":-89.968391499999996},{"id":"5C3C1495-4E7A-4782-A1A4-7F0C0C84F2B8","latitude":40.721000000000004,"name":"New York","longitude":-73.863500000000002},{"id":"C521277A-3C14-468A-A951-C169306262F8","latitude":43.703090500000002,"name":"Nice","longitude":7.2529325},{"id":"6EFC9921-EE6B-4671-814A-CBCCE94C6BAF","latitude":35.132149999999996,"name":"Nicosia","longitude":33.343850000000003},{"id":"E2161005-FFFA-460D-91B6-8EAAFA274085","latitude":35.441200500000001,"name":"Oklahoma City","longitude":-97.44186400000001},{"id":"B4A1E9CD-A96E-4237-9172-30E7C6BCE171","latitude":41.239366000000004,"name":"Omaha","longitude":-96.034395499999988},{"id":"71DC433C-CCB7-4169-AE9F-843C2E4C1A2E","latitude":28.547800000000002,"name":"Orlando","longitude":-81.334550000000007},{"id":"7C8C9CCC-4CDD-4A1B-97CC-FAB6DCF0FD8B","latitude":34.602910999999999,"name":"Osaka","longitude":135.464033},{"id":"EA3337D7-0659-4DB8-9168-D74964805827","latitude":59.680999999999997,"name":"Oslo","longitude":10.592000000000001},{"id":"C893381C-5BF9-414D-B18A-AB2182AF6BB9","latitude":45.249658499999995,"name":"Ottawa","longitude":-75.794452500000006},{"id":"FBFACA5B-1BB8-43A1-8528-0890614089B6","latitude":65.177999999999997,"name":"Oulu","longitude":25.868549999999999},{"id":"2D310DD5-A993-4D08-A25E-7B48D2A97491","latitude":51.7504165,"name":"Oxford","longitude":-1.2475874999999998},{"id":"5A955187-7BDA-48E0-BBDC-FA56139259CE","latitude":37.375443500000003,"name":"Palo Alto","longitude":-122.14462750000001},{"id":"CF9C3FB9-2597-4917-B251-3514DC5693DA","latitude":9.0322209999999998,"name":"Panama","longitude":-79.452317999999991},{"id":"66AC4F06-FDC7-4ACA-8DF7-32221D0E531E","latitude":48.854500000000002,"name":"Paris","longitude":2.3810000000000002},{"id":"CE6E1877-CDBC-4F15-B133-3AD521185D44","latitude":-32.021669000000003,"name":"Perth","longitude":115.931341},{"id":"9B063123-0A1F-41F0-9027-C4CB5AC5680B","latitude":39.974499999999999,"name":"Philadelphia","longitude":-75.106500000000011},{"id":"76790636-34D5-415A-9C9E-A992C412A16F","latitude":11.579364500000001,"name":"Phnom Penh","longitude":104.8901865},{"id":"B6694036-0D00-4A35-910C-722427BE49C3","latitude":33.446300000000001,"name":"Phoenix","longitude":-112.07565},{"id":"E7C05D75-43ED-478A-AE33-2AA9F01FE634","latitude":7.831035,"name":"Phuket","longitude":98.359928499999995},{"id":"6FE1751A-3B59-4AFE-B1C6-D75BAF97EC56","latitude":40.451500000000003,"name":"Pittsburgh","longitude":-79.97999999999999},{"id":"6A1198D4-A3CB-4187-AECF-8530C1F6A8FD","latitude":43.631,"name":"Portland, ME","longitude":-70.263499999999993},{"id":"2C8DFFA0-15D6-4C6F-8F01-7853602881E1","latitude":45.496499999999997,"name":"Portland, OR","longitude":-122.8155},{"id":"D4A5246C-EA65-482E-A1DC-8A1C34043D3E","latitude":41.107747500000002,"name":"Porto","longitude":-8.4954295000000002},{"id":"6C6593FD-E753-4525-9959-055794B22A35","latitude":-30.079499999999999,"name":"Porto Alegre","longitude":-51.184600000000003},{"id":"1948B635-A6C9-4B79-8C8E-75F535A4799D","latitude":50.085499999999996,"name":"Prague","longitude":14.427},{"id":"E0F28715-C136-4AA4-91A0-CC868BD15ACF","latitude":41.816992499999998,"name":"Providence","longitude":-71.416282499999994},{"id":"6117EA7E-AE50-4EFC-89B6-5BC403E6CC3C","latitude":46.856350000000006,"name":"Quebec","longitude":-71.341650000000001},{"id":"C91B0C18-DB06-4D66-82E0-3357C1828CC5","latitude":-0.20290149999999998,"name":"Quito","longitude":-78.437919999999991},{"id":"BC34FE04-6FEC-4758-806D-8330A7B6FBD4","latitude":35.905000000000001,"name":"Raleigh","longitude":-78.846499999999992},{"id":"825F829F-F6D5-4A5C-A560-2D6525FFDC8C","latitude":64.033999999999992,"name":"Reykjavik","longitude":-21.983000000000001},{"id":"3A885247-2FFE-4515-8E0F-5DB2EFA68DFA","latitude":37.548503999999994,"name":"Richmond","longitude":-77.484511999999995},{"id":"B33C938A-62FE-4F15-BF01-57C8B98330BC","latitude":56.939499999999995,"name":"Riga","longitude":24.129000000000001},{"id":"B19A4E91-2EE7-4FBB-862A-F54B03E7AF30","latitude":-22.797000000000001,"name":"Rio De Janeiro","longitude":-43.305499999999995},{"id":"816B03E4-2BAC-4406-B744-AB43376A03C2","latitude":24.725191500000001,"name":"Riyadh","longitude":46.822528499999997},{"id":"D173D67A-AC8B-4E6E-ADD8-328BB9742564","latitude":43.168752499999997,"name":"Rochester","longitude":-77.602615500000013},{"id":"7599550F-6671-4353-86FA-2DA44CFA4F48","latitude":41.853999999999999,"name":"Rome","longitude":12.477},{"id":"10F4AA83-9515-4CAF-8E6D-3C25DE5BA127","latitude":51.927972500000003,"name":"Rotterdam","longitude":4.4904060000000001},{"id":"E6E175BD-05F1-4673-85EF-184B0A2B48FC","latitude":59.950499999999998,"name":"Saint Petersburg","longitude":30.170499999999997},{"id":"9FB21B93-94AD-45DA-B3B0-8F736C6691FB","latitude":40.659400000000005,"name":"Salt Lake City","longitude":-111.91155000000001},{"id":"75DEF575-F299-4D36-A3FE-31B21BA2794D","latitude":29.458609500000001,"name":"San Antonio","longitude":-98.347251999999997},{"id":"1F8B24AE-AEC9-4856-B286-2ACA54DA475B","latitude":32.695,"name":"San Diego","longitude":-116.982},{"id":"C5AADEC2-FFE4-44A0-AFC1-7E8BE39EEBD8","latitude":37.754999999999995,"name":"San Francisco Bay Area","longitude":-122.33250000000001},{"id":"F747828F-E468-4C24-9B7C-B139D515A9F3","latitude":9.9441445000000002,"name":"San Jose","longitude":-84.080429000000009},{"id":"ED1069B1-2436-478D-9697-A59DD1C82F27","latitude":18.391559000000001,"name":"San Juan","longitude":-66.052208000000007},{"id":"A866F51D-8AF9-44CB-8ADD-449D2C7688F8","latitude":35.276077999999998,"name":"San Luis Obispo","longitude":-120.6665325},{"id":"DE172168-3385-43C9-AD74-1EC33AE53EF5","latitude":13.7058535,"name":"San Salvador","longitude":-89.2120745},{"id":"D6F8A6FE-886F-442E-B2FB-FAF4E7A84E3F","latitude":-33.487499999999997,"name":"Santiago","longitude":-70.698000000000008},{"id":"410AEBF7-EE25-4700-8C9B-B15E3C02F969","latitude":18.482517999999999,"name":"Santo Domingo","longitude":-69.930382000000009},{"id":"DEB8C0AB-3582-4473-8F72-DAF708CD6FBE","latitude":-23.721,"name":"Sao Paulo","longitude":-46.609999999999999},{"id":"EE874443-5710-4B59-BE50-33A0AB2B57B7","latitude":43.844499999999996,"name":"Sarajevo","longitude":18.372999999999998},{"id":"6F8828EB-239F-45B0-87D1-6829DAE26D11","latitude":52.139654499999999,"name":"Saskatoon","longitude":-106.646727},{"id":"F95CCC38-FD19-43A6-9445-EA4388AC97A1","latitude":47.577500000000001,"name":"Seattle","longitude":-122.31399999999999},{"id":"764F6FD0-A6DF-42A5-9CFE-C1C0035E2337","latitude":37.499499999999998,"name":"Seoul","longitude":126.7945},{"id":"4136EDC1-0A39-4540-9A1A-997876740A74","latitude":37.359983,"name":"Seville","longitude":-5.9865189999999995},{"id":"E1174FDA-EBCE-4600-8D2E-459AD43B5465","latitude":30.974499999999999,"name":"Shanghai","longitude":121.337},{"id":"517DE2F0-E1B2-4263-9C36-9B0BDD49A819","latitude":1.3149999999999999,"name":"Singapore","longitude":103.8035},{"id":"F18D53F2-B6AE-40EC-9512-B057D938E9DB","latitude":41.990049999999997,"name":"Skopje","longitude":21.472099999999998},{"id":"8BFBBE01-47C5-425C-8A9B-BB618466096C","latitude":42.710000000000001,"name":"Sofia","longitude":23.350000000000001},{"id":"A1011647-DAC8-4BFC-AAAB-90BD9B23BC6B","latitude":38.60895,"name":"St. Louis","longitude":-90.253349999999998},{"id":"6C57ACD3-B02E-4DE1-8B0A-3EC59F29CAE9","latitude":59.326142000000004,"name":"Stockholm","longitude":17.987545500000003},{"id":"6D15B5A2-C607-47F9-96AF-CCFCBAACF474","latitude":48.788508499999999,"name":"Stuttgart","longitude":9.1787340000000004},{"id":"9A33C08C-A247-42C1-A8CC-2D2526A834B4","latitude":-33.912999999999997,"name":"Sydney","longitude":151.13749999999999},{"id":"67D1A3EE-471C-471A-8928-5F99FD35303B","latitude":25.0825,"name":"Taipei","longitude":121.51000000000001},{"id":"BED1A6AF-3349-42A4-96B4-B752645398B8","latitude":59.406999999999996,"name":"Tallinn","longitude":24.746500000000001},{"id":"6E32168B-71AA-41A0-814D-8CD9E68C34A3","latitude":27.70485,"name":"Tampa Bay Area","longitude":-82.359049999999996},{"id":"0534EE47-5BAD-42A0-9925-144B61BC7A0E","latitude":61.478324000000001,"name":"Tampere","longitude":23.8302935},{"id":"B6EF66EE-60E7-428E-9386-6793DA6DF56A","latitude":58.367172999999994,"name":"Tartu","longitude":26.722345499999999},{"id":"D6B7D157-9147-48BF-BFB6-B2F63A146E78","latitude":41.282597500000001,"name":"Tashkent","longitude":69.279366500000009},{"id":"33FC9E30-4303-47D9-9EFE-EC8E5F2C6635","latitude":41.686300000000003,"name":"Tbilisi","longitude":44.882950000000001},{"id":"4B38100B-3C4F-4840-B50D-6B6E7664FE0A","latitude":35.696814000000003,"name":"Tehran","longitude":51.349818499999998},{"id":"1FF4278D-977E-4CF5-BBC3-32EBC4FE3243","latitude":32.087499999999999,"name":"Tel Aviv","longitude":34.847000000000001},{"id":"E89A2685-A71F-4EF0-AFAA-91AB159033E7","latitude":52.071654500000001,"name":"The Hague","longitude":4.3098679999999998},{"id":"54B4DD3D-8340-4491-BF2A-3787F0280714","latitude":40.629945499999998,"name":"Thessaloniki","longitude":22.928294999999999},{"id":"A25053AB-3772-4109-A5FE-6B5E9934484A","latitude":35.712499999999999,"name":"Tokyo","longitude":139.96549999999999},{"id":"C9AEB8AC-121D-486B-B394-E2A27E29BCF3","latitude":43.691500000000005,"name":"Toronto","longitude":-79.438999999999993},{"id":"C32F0FAC-A01F-415D-9F31-F5C70E896F60","latitude":43.611712500000003,"name":"Toulouse","longitude":1.4114},{"id":"624F9CED-3051-4140-B010-B326B5A10605","latitude":36.806148,"name":"Tunis","longitude":10.1795195},{"id":"D6B2A7E3-7721-4B97-9C00-3EA624E7BD57","latitude":45.067077499999996,"name":"Turin","longitude":7.6686285000000005},{"id":"76098028-E7BB-486D-AFAD-77639473E068","latitude":60.441789999999997,"name":"Turku","longitude":22.246971000000002},{"id":"CFF14376-D4E8-4FDC-8F66-9625E1F33BAA","latitude":59.833279500000003,"name":"Uppsala","longitude":17.658447000000002},{"id":"2153CC75-2DB0-41B5-8A1B-386FFA131B7B","latitude":52.058519000000004,"name":"Utrecht","longitude":5.1138820000000003},{"id":"3C215731-CEB3-443F-8256-8F29E92012B9","latitude":39.454449999999994,"name":"Valencia","longitude":-0.45674999999999999},{"id":"0EDD513B-8234-4709-A475-AFCCC8E0E299","latitude":35.942549999999997,"name":"Valletta","longitude":14.386949999999999},{"id":"7293CFB9-E0A9-4F46-82F7-CF90CE57A772","latitude":49.072000000000003,"name":"Vancouver","longitude":-122.64500000000001},{"id":"6A0D7924-D381-4D40-A6BA-F92BF6DF9696","latitude":48.447050500000003,"name":"Victoria","longitude":-123.330803},{"id":"1309031E-3B6C-4F4C-83C3-85C6BA83272A","latitude":48.078749999999999,"name":"Vienna","longitude":16.377200000000002},{"id":"627F408C-06D0-4BAA-82BA-A349860216BA","latitude":54.682500000000005,"name":"Vilnius","longitude":25.242000000000001},{"id":"12CFC73D-7F16-4E33-AEFE-F54AF646CDC5","latitude":52.233999999999995,"name":"Warsaw","longitude":21.016500000000001},{"id":"CAD63AA5-5FA8-4D8B-A674-7BD52902CC3A","latitude":38.886809,"name":"Washington, D.C.","longitude":-77.036132500000008},{"id":"97E893B3-4F03-495E-B979-8517E7FC7AFE","latitude":-41.16395,"name":"Wellington","longitude":174.87995000000001},{"id":"4033EBA9-1E14-412F-B1C9-74EC1A84E408","latitude":49.864284499999997,"name":"Winnipeg","longitude":-97.142857499999991},{"id":"897C6DAA-7805-4B6B-BF6F-E3987291E3D9","latitude":51.109862,"name":"Wroclaw","longitude":17.043064000000001},{"id":"92F120DF-A768-4C1C-93F2-3B0557DC0FAA","latitude":40.155000000000001,"name":"Yerevan","longitude":44.591499999999996},{"id":"08CF8540-0B6E-482E-B693-120244254064","latitude":45.806200000000004,"name":"Zagreb","longitude":15.9796},{"id":"E3F82ECA-FFCE-4FE3-884B-6C6806D1AB77","latitude":47.379000000000005,"name":"Zurich","longitude":8.5375000000000014}]
